{
  "getParties": {
    "response": [
      {
        "id": 1,
        "name": "Dr. Ashish Gulati",
        "specialization": ["Cardiologist"],
        "category": "KYC",
        "location": "Karol Bagh",
        "visitData": [
          {
            "date": "12",
            "month": "May",
            "state": "DOCTOR_VISIT_STATES.COMPLETED"
          },
          {
            "date": "26",
            "month": "May",
            "state": "DOCTOR_VISIT_STATES.TODAY"
          },
          {
            "date": "27",
            "month": "May",
            "state": "DOCTOR_VISIT_STATES.UPCOMING"
          }
        ]
      },
      {
        "id": 2,
        "name": "Dr. Manish Kumar ",
        "specialization": ["Cardiologist"],
        "category": "a+",
        "location": "Karol Bagh",
        "visitData": [
          {
            "date": "12",
            "month": "May",
            "state": "DOCTOR_VISIT_STATES.MISSED"
          },
          {
            "date": "26",
            "month": "May",
            "state": "DOCTOR_VISIT_STATES.TODAY"
          },
          {
            "date": "27",
            "month": "May",
            "state": "DOCTOR_VISIT_STATES.UPCOMING"
          }
        ]
      },
      {
        "id": 3,
        "name": "Dr. Manoj Manjhi",
        "specialization": ["Cardiologist"],
        "category": "b",
        "location": "Karol Bagh",
        "visitData": [
          {
            "date": "26",
            "month": "May",
            "state": "DOCTOR_VISIT_STATES.TODAY"
          },
          {
            "date": "29",
            "month": "May",
            "state": "DOCTOR_VISIT_STATES.UPCOMING"
          }
        ]
      },
      {
        "id": 4,
        "name": "Dr. Manoj Manjhi",
        "specialization": ["Cardiologist"],
        "category": "KYC",
        "location": "Karol Bagh",
        "visitData": [
          {
            "date": "12",
            "month": "May",
            "state": "DOCTOR_VISIT_STATES.COMPLETED"
          },
          {
            "date": "26",
            "month": "May",
            "state": "DOCTOR_VISIT_STATES.TODAY"
          },
          {
            "date": "27",
            "month": "May",
            "state": "DOCTOR_VISIT_STATES.UPCOMING"
          }
        ]
      },
      {
        "id": 5,
        "name": "Dr. Tanmay Singh",
        "specialization": ["Dermatologist"],
        "category": "B",
        "location": "Karol Bagh",
        "visitData": [
          {
            "date": "13",
            "month": "May",
            "state": "DOCTOR_VISIT_STATES.MISSED"
          },
          {
            "date": "29",
            "month": "May",
            "state": "DOCTOR_VISIT_STATES.UPCOMING"
          }
        ]
      },
      {
        "id": 6,
        "name": "Balaji Medicos ",
        "specialization": ["Chemist"],
        "category": "-",
        "location": "Karol Bagh",
        "visitData": [
          {
            "date": "24",
            "month": "May",
            "state": "DOCTOR_VISIT_STATES.MISSED"
          },
          {
            "date": "29",
            "month": "May",
            "state": "DOCTOR_VISIT_STATES.UPCOMING"
          }
        ]
      }
    ],
    "request": {
      "staffPositionId": 1,
      "day": 5,
      "month": 5,
      "year": 2021
    }
  }
}
